[
  {
    "id": "online",
    "name": "Online on Discord"
  },
  {
    "id": "idea-cy",
    "name": "IDEA Cyprus, Nicosia",
    "city": "Nicosia",
    "geo": [35.172405, 33.36224]
  },
  {
    "id": "baracas-lounge",
    "name": "Baracas Lounge",
    "city": "Paphos",
    "link": "https://maps.apple.com/?address=8220,%20Cyprus&auid=7890113038827408012&ll=34.807858,32.394523&lsp=9902&q=Baracas%20Lounge",
    "geo": [34.807858, 32.394523]
  },
  {
    "id": "bono",
    "name": "Bono Bar & Restaurant",
    "city": "Limassol",
    "link": "https://g.page/BonoBarAndRestaurant?share",
    "geo": [34.6811418, 33.042411]
  },
  {
    "id": "brewery",
    "name": "The Brewery",
    "city": "Larnaka",
    "link": "https://thebrewerylarnaca.com/",
    "geo": [34.91374521269892, 33.637798401607384]
  },
  {
    "id": "brewfellas",
    "name": "Brewfellas Bar",
    "city": "Nicosia",
    "link": "https://www.brewfellas.com/bar/",
    "geo": [35.173703, 33.361346],
    "what3words": "///play.munched.pimples"
  },
  {
    "id": "the-rooftop-paphos",
    "name": "The Rooftop",
    "city": "Paphos",
    "link": "https://www.google.com/maps/place/Evagoras+Pallikarides+Foundation,+Evagora+Pallikaridi,+Paphos,+Cyprus/@34.779866,32.4254071,17z",
    "geo": [34.779866, 32.4254071],
    "what3words": "///affair.blinking.mugs"
  },
  {
    "id": "pallikarides-paphos",
    "name": "Pallikarides Foundation",
    "city": "Paphos",
    "link": "https://www.google.com/maps/place/Evagoras+Pallikarides+Foundation,+Evagora+Pallikaridi,+Paphos,+Cyprus/@34.779866,32.4254071,17z",
    "geo": [34.779866, 32.4254071],
    "what3words": "///affair.blinking.mugs"
  },
  {
    "id": "oneills-paphos",
    "name": "O'Neills Pub",
    "city": "Paphos",
    "link": "https://www.oneillspaphos.com/",
    "geo": [34.772258, 32.410115],
    "what3words": "///greeting.freed.tracking"
  },
  {
    "id": "sash-shisha",
    "name": "Sash Shisha",
    "city": "Limassol",
    "link": "https://maps.app.goo.gl/Qmixsg7SPBTNCARLA",
    "geo": [34.7099907, 33.1275147],
    "what3words": "///reframed.dispenses.entrusted"
  },
  {
    "id": "br-hub-nicosia",
    "name": "B.R. Hub",
    "city": "Nicosia",
    "link": "https://brhub.com.cy/",
    "geo": [35.141055, 33.344739],
    "what3words": "///skater.tequila.random"
  },
  {
    "id": "wrike-hq-nicosia",
    "name": "Wrike",
    "city": "Nicosia",
    "link": "https://www.wrike.com/techclub/",
    "geo": [35.160374, 33.374852],
    "what3words": "///entertainer.taster.quibble"
  }
]
